[
  {
    "id": "shai",
    "name": "Shai",
    "category": "salon",
    "description": "A modern sanctuary of style and beauty.",
    "rating": 4.5,
    "address": "123 Beauty Lane, Style City",
    "phone": "1234567890",
    "lat": 13.05,
    "lng": 80.25,
    "city": "Chennai"
  },
  {
    "id": "glitz5",
    "name": "Glitz 5",
    "category": "salon",
    "description": "Trendy looks and professional care.",
    "rating": 4.9,
    "address": "456 Glamour Ave, Sparkle City",
    "phone": "9876543210",
    "lat": 13.1,
    "lng": 80.25,
    "city": "Chennai"
  },
  {
    "id": "relaxspa",
    "name": "Relax Spa",
    "category": "spa",
    "description": "Your place to unwind and rejuvenate.",
    "rating": 4.7,
    "address": "1 Spa Street, Relax City",
    "phone": "1111111111",
    "lat": 13.07,
    "lng": 80.29,
    "city": "Chennai"
  },
  {
    "id": "glowparlour",
    "name": "Glow Parlour",
    "category": "parlour",
    "description": "Beauty treatments for a radiant you.",
    "rating": 4.6,
    "address": "22 Shine Ave, Glam Town",
    "phone": "2222222222",
    "lat": 13.09,
    "lng": 80.27,
    "city": "Chennai"
  },
  {
    "id": "healthclinic",
    "name": "Health Clinic",
    "category": "clinic",
    "description": "Caring professionals for your health.",
    "rating": 4.8,
    "address": "33 Wellness Rd, Care City",
    "phone": "3333333333",
    "lat": 13.06,
    "lng": 80.23,
    "city": "Chennai"
  },
  {
    "id": "quickbites",
    "name": "Quick Bites",
    "category": "food",
    "description": "Fast and tasty takeaway meals.",
    "rating": 4.3,
    "address": "44 Snack St, Foodville",
    "phone": "4444444444",
    "lat": 13.08,
    "lng": 80.26,
    "city": "Chennai"
  },
  {
    "id": "washnfold",
    "name": "Wash n Fold",
    "category": "laundry",
    "description": "Fresh laundry services.",
    "rating": 4.4,
    "address": "55 Clean St, Fresh Town",
    "phone": "5555555555",
    "lat": 13.085,
    "lng": 80.28,
    "city": "Chennai"
  },
  {
    "id": "greensideturf",
    "name": "Greenside Turf",
    "category": "turf",
    "description": "Play on premium turf.",
    "rating": 4.5,
    "address": "66 Field Rd, Sport City",
    "phone": "6666666666",
    "lat": 13.095,
    "lng": 80.3,
    "city": "Chennai"
  },
  {
    "id": "funzone",
    "name": "Fun Zone",
    "category": "gamezone",
    "description": "Arcade games for everyone.",
    "rating": 4.2,
    "address": "77 Play Ave, Joy Town",
    "phone": "7777777777",
    "lat": 13.11,
    "lng": 80.27,
    "city": "Chennai"
  },
  {
    "id": "zenmassage",
    "name": "Zen Massage",
    "category": "massage",
    "description": "Relaxing massage therapies.",
    "rating": 4.9,
    "address": "88 Calm St, Peace City",
    "phone": "8888888888",
    "lat": 13.1,
    "lng": 80.26,
    "city": "Chennai"
  },
  {
    "id": "eventify",
    "name": "Eventify",
    "category": "event",
    "description": "Event planning made easy.",
    "rating": 4.6,
    "address": "99 Party Blvd, Festive City",
    "phone": "9999999999",
    "lat": 13.09,
    "lng": 80.25,
    "city": "Chennai"
  },
  {
    "id": "petcare",
    "name": "Pet Care Clinic",
    "category": "petclinic",
    "description": "Compassionate pet health services.",
    "rating": 4.8,
    "address": "11 Paw Rd, Pet Town",
    "phone": "1010101010",
    "lat": 13.07,
    "lng": 80.24,
    "city": "Chennai"
  },
  {
    "id": "dressiron",
    "name": "Dress Iron",
    "category": "dressiron",
    "description": "Professional ironing for your garments.",
    "rating": 4.5,
    "address": "12 Iron St, Press Town",
    "phone": "1112223333",
    "lat": 13.12,
    "lng": 80.22,
    "city": "Chennai"
  },
  {
    "id": "coimbatorecuts",
    "name": "Coimbatore Cuts",
    "category": "salon",
    "description": "Stylish salon in Coimbatore.",
    "rating": 4.4,
    "address": "12 Race Course, Coimbatore",
    "phone": "9090909090",
    "lat": 11.0168,
    "lng": 76.9558,
    "city": "Coimbatore"
  },
  {
    "id": "maduraibites",
    "name": "Madurai Bites",
    "category": "food",
    "description": "Local cuisine in Madurai.",
    "rating": 4.2,
    "address": "45 Temple St, Madurai",
    "phone": "8080808080",
    "lat": 9.9252,
    "lng": 78.1198,
    "city": "Madurai"
  },
  {
    "id": "trichyspa",
    "name": "Trichy Spa",
    "category": "spa",
    "description": "Relaxing spa in Trichy.",
    "rating": 4.3,
    "address": "89 River Rd, Tiruchirappalli",
    "phone": "7070707070",
    "lat": 10.7905,
    "lng": 78.7047,
    "city": "Tiruchirappalli"
  },
  {
    "id": "salemclinic",
    "name": "Salem Clinic",
    "category": "clinic",
    "description": "Health services in Salem.",
    "rating": 4.5,
    "address": "67 Fort Rd, Salem",
    "phone": "6060606060",
    "lat": 11.6643,
    "lng": 78.1460,
    "city": "Salem"
  }
]
